{
    "wells": [
        {
            "name": "OLDHAM TRUST_3875LS",
            "uwi": "42227399210000",
            "latitude": "32.41927261",
            "longitude": "-101.3192726",
            "zref": "",
            "datum": ""
        },
        {
            "name": "OLDHAM TRUST_3876WA",
            "uwi": "42227399220000",
            "latitude": "32.419143",
            "longitude": "-101.319143",
            "zref": "2575",
            "datum": ""
        },
        {
            "name": "OLDHAM 41 1",
            "uwi": "42227015830000",
            "latitude": "32.42384199",
            "longitude": "-101.35776",
            "zref": "2573",
            "datum": ""
        },
        {
            "name": "TAYLOR 1",
            "uwi": "42227311330000",
            "latitude": "32.4193456",
            "longitude": "-101.3450724",
            "zref": "2575",
            "datum": ""
        },
        {
            "name": "OLDHAM 1",
            "uwi": "42227316360000",
            "latitude": "32.43740701",
            "longitude": "-101.344",
            "zref": "2551",
            "datum": ""
        },
        {
            "name": "BARR RANCH 1",
            "uwi": "42227348010000",
            "latitude": "32.45170511",
            "longitude": "-101.3589753",
            "zref": "2583",
            "datum": ""
        },
        {
            "name": "COHIBA_1",
            "uwi": "42227361000000",
            "latitude": "32.44747078",
            "longitude": "-101.3809308",
            "zref": "2612",
            "datum": ""
        },
        {
            "name": "OLDHAM 39 2",
            "uwi": "42227325560000",
            "latitude": "32.437291",
            "longitude": "-101.336126",
            "zref": "2565",
            "datum": ""
        },
        {
            "name": "GRIFFIN 1",
            "uwi": "42227329980000",
            "latitude": "32.4634958",
            "longitude": "-101.330278",
            "zref": "2553",
            "datum": ""
        },
        {
            "name": "LAITALA 2",
            "uwi": "42227338570000",
            "latitude": "32.45810569",
            "longitude": "-101.3387176",
            "zref": "2524",
            "datum": ""
        },
        {
            "name": "THOMPSON 24 1",
            "uwi": "42227347570000",
            "latitude": "32.4600547",
            "longitude": "-101.3557027",
            "zref": "2566",
            "datum": ""
        },
        {
            "name": "BET THE FARM UNIT_1",
            "uwi": "42227348510000",
            "latitude": "32.44413714",
            "longitude": "-101.377893",
            "zref": "2610",
            "datum": ""
        },
        {
            "name": "BUCHANAN 42 1",
            "uwi": "42227374300000",
            "latitude": "32.42324638",
            "longitude": "-101.3322489",
            "zref": "2571",
            "datum": ""
        },
        {
            "name": "OLDHAM TRUST 4051 WA",
            "uwi": "42227391387000",
            "latitude": "32.4246043",
            "longitude": "-101.3630973",
            "zref": "2593",
            "datum": ""
        },
        {
            "name": "MORGAN-NEAL 39-26 3WB",
            "uwi": "42227396410000",
            "latitude": "32.42393029",
            "longitude": "-101.3422139",
            "zref": "2595",
            "datum": ""
        },
        {
            "name": "OLDHAM TRUST 3871WA",
            "uwi": "42227394670000",
            "latitude": "32.42319169",
            "longitude": "-101.3290402",
            "zref": "2574",
            "datum": ""
        },
        {
            "name": "OLDHAM TRUST 4058LS",
            "uwi": "42227394660000",
            "latitude": "32.42378333",
            "longitude": "-101.3482",
            "zref": "",
            "datum": ""
        },
        {
            "name": "OLDHAM TRUST 4051 WA 1H",
            "uwi": "42227391380000",
            "latitude": "32.4246025",
            "longitude": "-101.3631025",
            "zref": "2593",
            "datum": ""
        },
        {
            "name": "MORGAN-NEAL UNIT NO 2 39-26_2WA",
            "uwi": "42227398240000",
            "latitude": "32.42393284",
            "longitude": "-101.3423435",
            "zref": "2592",
            "datum": ""
        },
        {
            "name": "MORGAN-NEAL UNIT NO 2 39-26_1LS",
            "uwi": "42227398590000",
            "latitude": "32.42399",
            "longitude": "-101.34501",
            "zref": "2595",
            "datum": ""
        },
        {
            "name": "MORGAN-NEAL UNIT NO 2 39-26_1WA",
            "uwi": "42227398600000",
            "latitude": "32.4239902",
            "longitude": "-101.3448833",
            "zref": "2597",
            "datum": ""
        },
        {
            "name": "MORGAN-NEAL 39-26_2LS",
            "uwi": "42227398520000",
            "latitude": "32.42393167",
            "longitude": "-101.3422773",
            "zref": "2593",
            "datum": ""
        }
    ]
}